纬度值为：31.05530167，主车向正东方向运行，如下log需要把31后面的数据除以60然后和仿真纬度做对比，取最后一帧的纬度和仿真纬度做对比，得出动态条件下latitude方向
大致偏了50米


IAM Testing Menu
1: IAM Location Testing Menu
2: Exit
Pick an option:
1

IAM Location Testing Menu
1: clearmountangledb
2: getarmparams
3: getmasterstatus
4: getmountangledb
5: gpsoff
6: gpson
7: rawggaoff
8: rawggaon
9: setarmparams
10: Back
Pick an option:
8

IAM Location Testing Menu
1: clearmountangledb
2: getarmparams
3: getmasterstatus
4: getmountangledb
5: gpsoff
6: gpson
7: rawggaoff
8: rawggaon
9: setarmparams
10: Back
Pick an option:
$GNGGA,071727.00,3103.3181587,N,11925.0744586,E,1,08,1.02,6.823,M,4.767,M,,*72
$GNGGA,071727.10,3103.3181587,N,11925.0744590,E,1,08,1.02,6.825,M,4.767,M,,*72
$GNGGA,071727.20,3103.3181588,N,11925.0744591,E,1,08,1.02,6.825,M,4.767,M,,*7F
$GNGGA,071727.30,3103.3181587,N,11925.0744587,E,1,08,1.02,6.826,M,4.767,M,,*75
$GNGGA,071727.40,3103.3181592,N,11925.0744594,E,1,08,1.02,6.825,M,4.767,M,,*77
$GNGGA,071727.50,3103.3181593,N,11925.0744596,E,1,08,1.02,6.825,M,4.767,M,,*75
$GNGGA,071727.60,3103.3181591,N,11925.0744599,E,1,08,1.02,6.826,M,4.767,M,,*78
$GNGGA,071727.70,3103.3181585,N,11925.0744593,E,1,08,1.02,6.826,M,4.767,M,,*76
$GNGGA,071727.80,3103.3181585,N,11925.0744597,E,1,08,1.02,6.827,M,4.767,M,,*7C
$GNGGA,071727.90,3103.3181588,N,11925.0744596,E,1,08,1.02,6.827,M,4.767,M,,*71
$GNGGA,071728.00,3103.3181588,N,11925.0744591,E,1,08,1.02,6.826,M,4.767,M,,*71
$GNGGA,071728.10,3103.3181581,N,11925.0744585,E,1,08,1.02,6.825,M,4.767,M,,*7F
$GNGGA,071728.20,3103.3181592,N,11925.0744597,E,1,08,1.02,6.825,M,4.767,M,,*7D
$GNGGA,071728.30,3103.3181593,N,11925.0744598,E,1,08,1.02,6.823,M,4.767,M,,*74
$GNGGA,071728.40,3103.3181586,N,11925.0744587,E,1,08,1.02,6.826,M,4.767,M,,*7C
$GNGGA,071728.50,3103.3181589,N,11925.0744592,E,1,08,1.02,6.822,M,4.767,M,,*72
$GNGGA,071728.60,3103.3181591,N,11925.0744590,E,1,08,1.02,6.822,M,4.767,M,,*7A
$GNGGA,071728.70,3103.3181590,N,11925.0744585,E,1,08,1.02,6.823,M,4.767,M,,*7F
$GNGGA,071728.80,3103.3181591,N,11925.0744589,E,1,08,1.02,6.821,M,4.767,M,,*7F
$GNGGA,071728.90,3103.3181585,N,11925.0744586,E,1,08,1.02,6.823,M,4.767,M,,*76
$GNGGA,071729.00,3103.3181587,N,11925.0744581,E,1,08,1.02,6.822,M,4.767,M,,*7A
$GNGGA,071729.10,3103.3181587,N,11925.0744586,E,1,08,1.02,6.824,M,4.767,M,,*7A
$GNGGA,071729.20,3103.3181578,N,11925.0744581,E,1,08,1.02,6.823,M,4.767,M,,*79
$GNGGA,071729.30,3103.3181580,N,11925.0744579,E,1,08,1.02,6.822,M,4.767,M,,*79
$GNGGA,071729.40,3103.3181587,N,11925.0744588,E,1,08,1.02,6.824,M,4.767,M,,*71
$GNGGA,071729.50,3103.3181570,N,11925.0744577,E,1,08,1.02,6.824,M,4.767,M,,*78
$GNGGA,071729.60,3103.3181584,N,11925.0744585,E,1,08,1.02,6.823,M,4.767,M,,*7A
$GNGGA,071729.70,3103.3181583,N,11925.0744585,E,1,08,1.02,6.823,M,4.767,M,,*7C
$GNGGA,071729.80,3103.3181578,N,11925.0744588,E,1,08,1.02,6.823,M,4.767,M,,*7A
$GNGGA,071729.90,3103.3181580,N,11925.0744586,E,1,08,1.02,6.821,M,4.767,M,,*70
$GNGGA,071730.00,3103.3181585,N,11925.0744592,E,1,08,1.02,6.822,M,4.767,M,,*72
$GNGGA,071730.10,3103.3181575,N,11925.0744587,E,1,08,1.02,6.820,M,4.767,M,,*7A
$GNGGA,071730.20,3103.3181587,N,11925.0744594,E,1,08,1.02,6.822,M,4.767,M,,*74
$GNGGA,071730.30,3103.3181575,N,11925.0744587,E,1,08,1.02,6.822,M,4.767,M,,*7A
$GNGGA,071730.40,3103.3181575,N,11925.0744589,E,1,08,1.02,6.819,M,4.767,M,,*7B
$GNGGA,071730.50,3103.3181579,N,11925.0744592,E,1,08,1.02,6.822,M,4.767,M,,*74
$GNGGA,071730.60,3103.3181569,N,11925.0744583,E,1,08,1.02,6.822,M,4.767,M,,*76
$GNGGA,071730.70,3103.3181581,N,11925.0744592,E,1,08,1.02,6.823,M,4.767,M,,*70
$GNGGA,071730.80,3103.3181580,N,11925.0744589,E,1,08,1.02,6.823,M,4.767,M,,*74
$GNGGA,071730.90,3103.3181578,N,11925.0744589,E,1,08,1.02,6.824,M,4.767,M,,*75
$GNGGA,071731.00,3103.3181572,N,11925.0744588,E,1,08,1.02,6.826,M,4.767,M,,*74
$GNGGA,071731.10,3103.3181582,N,11925.0744594,E,1,08,1.02,6.828,M,4.767,M,,*79
$GNGGA,071731.20,3103.3181580,N,11925.0744597,E,1,08,1.02,6.827,M,4.767,M,,*74
$GNGGA,071731.30,3103.3181573,N,11925.0744590,E,1,08,1.02,6.829,M,4.767,M,,*70
$GNGGA,071731.40,3103.3181578,N,11925.0744594,E,1,08,1.02,6.826,M,4.767,M,,*77
$GNGGA,071731.50,3103.3181574,N,11925.0744593,E,1,08,1.02,6.829,M,4.767,M,,*72
$GNGGA,071731.60,3103.3181578,N,11925.0744594,E,1,08,1.02,6.827,M,4.767,M,,*74
$GNGGA,071731.70,3103.3181574,N,11925.0744596,E,1,08,1.02,6.828,M,4.767,M,,*74
$GNGGA,071731.80,3103.3181577,N,11925.0744597,E,1,08,1.02,6.828,M,4.767,M,,*79
$GNGGA,071731.90,3103.3181561,N,11925.0744587,E,1,08,1.02,6.829,M,4.767,M,,*7F
$GNGGA,071732.00,3103.3181574,N,11925.0744594,E,1,08,1.02,6.829,M,4.767,M,,*73
$GNGGA,071732.10,3103.3181569,N,11925.0744594,E,1,08,1.02,6.828,M,4.767,M,,*7F
$GNGGA,071732.20,3103.3181572,N,11925.0744595,E,1,08,1.02,6.826,M,4.767,M,,*79
$GNGGA,071732.30,3103.3181566,N,11925.0744596,E,1,08,1.02,6.828,M,4.767,M,,*70
$GNGGA,071732.40,3103.3181573,N,11925.0744596,E,1,08,1.02,6.827,M,4.767,M,,*7C
$GNGGA,071732.50,3103.3181578,N,11925.0744597,E,1,08,1.02,6.825,M,4.767,M,,*75
$GNGGA,071732.60,3103.3181578,N,11925.0744592,E,1,08,1.02,6.825,M,4.767,M,,*73
$GNGGA,071732.70,3103.3181573,N,11925.0744593,E,1,08,1.02,6.828,M,4.767,M,,*75
$GNGGA,071732.80,3103.3181580,N,11925.0744590,E,1,08,1.02,6.827,M,4.767,M,,*7A
$GNGGA,071732.90,3103.3181578,N,11925.0744592,E,1,08,1.02,6.829,M,4.767,M,,*70
$GNGGA,071733.00,3103.3181576,N,11925.0744587,E,1,08,1.02,6.829,M,4.767,M,,*72
$GNGGA,071733.10,3103.3181587,N,11925.0744592,E,1,08,1.02,6.828,M,4.767,M,,*78
$GNGGA,071733.20,3103.3181575,N,11925.0744586,E,1,08,1.02,6.832,M,4.767,M,,*78
$GNGGA,071733.30,3103.3181581,N,11925.0744587,E,1,08,1.02,6.828,M,4.767,M,,*78
$GNGGA,071733.40,3103.3181585,N,11925.0744589,E,1,08,1.02,6.829,M,4.767,M,,*74
$GNGGA,071733.50,3103.3181583,N,11925.0744585,E,1,08,1.02,6.829,M,4.767,M,,*7F
$GNGGA,071733.60,3103.3181586,N,11925.0744588,E,1,08,1.02,6.831,M,4.767,M,,*7D
$GNGGA,071733.70,3103.3181578,N,11925.0744581,E,1,08,1.02,6.829,M,4.767,M,,*7D
$GNGGA,071733.80,3103.3181585,N,11925.0744587,E,1,08,1.02,6.829,M,4.767,M,,*76
$GNGGA,071733.90,3103.3181581,N,11925.0744586,E,1,08,1.02,6.829,M,4.767,M,,*72
$GNGGA,071734.00,3103.3181583,N,11925.0744589,E,1,08,1.02,6.829,M,4.767,M,,*71
$GNGGA,071734.10,3103.3181588,N,11925.0744586,E,1,08,1.02,6.828,M,4.767,M,,*75
$GNGGA,071734.20,3103.3181590,N,11925.0744591,E,1,08,1.02,6.829,M,4.767,M,,*78
$GNGGA,071734.30,3103.3181588,N,11925.0744589,E,1,08,1.02,6.829,M,4.767,M,,*79
$GNGGA,071734.40,3103.3181586,N,11925.0744587,E,1,08,1.02,6.831,M,4.767,M,,*77
$GNGGA,071734.50,3103.3181588,N,11925.0744586,E,1,08,1.02,6.830,M,4.767,M,,*78
$GNGGA,071734.60,3103.3181589,N,11925.0744590,E,1,08,1.02,6.830,M,4.767,M,,*7D
$GNGGA,071734.70,3103.3181586,N,11925.0744591,E,1,08,1.02,6.831,M,4.767,M,,*73
$GNGGA,071734.80,3103.3181590,N,11925.0744590,E,1,08,1.02,6.831,M,4.767,M,,*7A
$GNGGA,071734.90,3103.3181595,N,11925.0744594,E,1,08,1.02,6.830,M,4.767,M,,*7B
$GNGGA,071735.00,3103.3181588,N,11925.0744589,E,1,08,1.02,6.830,M,4.767,M,,*73
$GNGGA,071735.10,3103.3181592,N,11925.0744590,E,1,08,1.02,6.828,M,4.767,M,,*78
$GNGGA,071735.20,3103.3181597,N,11925.0744588,E,1,08,1.02,6.828,M,4.767,M,,*77
$GNGGA,071735.30,3103.3181589,N,11925.0744587,E,1,08,1.02,6.828,M,4.767,M,,*76
$GNGGA,071735.40,3103.3181595,N,11925.0744593,E,1,08,1.02,6.829,M,4.767,M,,*78
$GNGGA,071735.50,3103.3181588,N,11925.0744585,E,1,08,1.02,6.829,M,4.767,M,,*72
$GNGGA,071735.60,3103.3181598,N,11925.0744589,E,1,08,1.02,6.829,M,4.767,M,,*7C
$GNGGA,071735.70,3103.3181594,N,11925.0744587,E,1,08,1.02,6.831,M,4.767,M,,*76
$GNGGA,071735.80,3103.3181603,N,11925.0744594,E,1,08,1.02,6.831,M,4.767,M,,*76
$GNGGA,071735.90,3103.3181597,N,11925.0744593,E,1,08,1.02,6.831,M,4.767,M,,*7E
$GNGGA,071736.00,3103.3181595,N,11925.0744592,E,1,08,1.02,6.832,M,4.767,M,,*74
$GNGGA,071736.10,3103.3181601,N,11925.0744595,E,1,08,1.02,6.830,M,4.767,M,,*7E
$GNGGA,071736.20,3103.3181593,N,11925.0744590,E,1,08,1.02,6.833,M,4.767,M,,*73
$GNGGA,071736.30,3103.3181592,N,11925.0744590,E,1,08,1.02,6.833,M,4.767,M,,*73
$GNGGA,071736.40,3103.3181593,N,11925.0744597,E,1,08,1.02,6.834,M,4.767,M,,*75
$GNGGA,071736.50,3103.3181596,N,11925.0744592,E,1,08,1.02,6.834,M,4.767,M,,*74
$GNGGA,071736.60,3103.3181603,N,11925.0744604,E,1,08,1.02,6.834,M,4.767,M,,*74
$GNGGA,071736.70,3103.3181599,N,11925.0744604,E,1,08,1.02,6.835,M,4.767,M,,*74
$GNGGA,071736.80,3103.3181601,N,11925.0744600,E,1,08,1.02,6.834,M,4.767,M,,*7C
$GNGGA,071736.90,3103.3181611,N,11925.0744611,E,1,08,1.02,6.835,M,4.767,M,,*7D
$GNGGA,071737.00,3103.3181609,N,11925.0744609,E,1,08,1.02,6.834,M,4.767,M,,*74
$GNGGA,071737.10,3103.3181609,N,11925.0744611,E,1,08,1.02,6.835,M,4.767,M,,*7D
$GNGGA,071737.20,3103.3181609,N,11925.0744612,E,1,08,1.02,6.836,M,4.767,M,,*7E
$GNGGA,071737.30,3103.3181612,N,11925.0744610,E,1,08,1.02,6.834,M,4.767,M,,*75
$GNGGA,071737.40,3103.3181608,N,11925.0744610,E,1,08,1.02,6.834,M,4.767,M,,*79
$GNGGA,071737.50,3103.3181615,N,11925.0744608,E,1,08,1.02,6.833,M,4.767,M,,*7A
$GNGGA,071737.60,3103.3181603,N,11925.0744603,E,1,08,1.02,6.831,M,4.767,M,,*77
$GNGGA,071737.70,3103.3181608,N,11925.0744606,E,1,08,1.02,6.831,M,4.767,M,,*78
$GNGGA,071737.80,3103.3181616,N,11925.0744606,E,1,08,1.02,6.828,M,4.767,M,,*70
$GNGGA,071737.90,3103.3181608,N,11925.0744607,E,1,08,1.02,6.828,M,4.767,M,,*7F
$GNGGA,071738.00,3103.3181618,N,11925.0744608,E,1,08,1.02,6.828,M,4.767,M,,*77
$GNGGA,071738.10,3103.3181611,N,11925.0744607,E,1,08,1.02,6.829,M,4.767,M,,*71
$GNGGA,071738.20,3103.3181616,N,11925.0744609,E,1,08,1.02,6.824,M,4.767,M,,*76
$GNGGA,071738.30,3103.3181612,N,11925.0744615,E,1,08,1.02,6.825,M,4.767,M,,*7F
$GNGGA,071738.40,3103.3181610,N,11925.0744615,E,1,08,1.02,6.826,M,4.767,M,,*79
$GNGGA,071738.50,3103.3181609,N,11925.0744614,E,1,08,1.02,6.826,M,4.767,M,,*71
$GNGGA,071738.60,3103.3181611,N,11925.0744617,E,1,08,1.02,6.825,M,4.767,M,,*7B
$GNGGA,071738.70,3103.3181616,N,11925.0744622,E,1,08,1.02,6.826,M,4.767,M,,*78
$GNGGA,071738.80,3103.3181607,N,11925.0744614,E,1,08,1.02,6.824,M,4.767,M,,*70
$GNGGA,071738.90,3103.3181610,N,11925.0744617,E,1,08,1.02,6.827,M,4.767,M,,*77
$GNGGA,071739.00,3103.3181609,N,11925.0744610,E,1,08,1.02,6.824,M,4.767,M,,*73
$GNGGA,071739.10,3103.3181604,N,11925.0744613,E,1,08,1.02,6.824,M,4.767,M,,*7C
$GNGGA,071739.20,3103.3181608,N,11925.0744611,E,1,08,1.02,6.824,M,4.767,M,,*71
$GNGGA,071739.30,3103.3181603,N,11925.0744604,E,1,08,1.02,6.821,M,4.767,M,,*7A
$GNGGA,071739.40,3103.3181605,N,11925.0744608,E,1,08,1.02,6.822,M,4.767,M,,*74
$GNGGA,071739.50,3103.3181603,N,11925.0744608,E,1,08,1.02,6.820,M,4.767,M,,*71
$GNGGA,071739.60,3103.3181613,N,11925.0744605,E,1,08,1.02,6.820,M,4.767,M,,*7E
$GNGGA,071739.70,3103.3181612,N,11925.0744604,E,1,08,1.02,6.819,M,4.767,M,,*75
$GNGGA,071739.80,3103.3181606,N,11925.0744599,E,1,08,1.02,6.819,M,4.767,M,,*78
$GNGGA,071739.90,3103.3181610,N,11925.0744599,E,1,08,1.02,6.819,M,4.767,M,,*7E
$GNGGA,071740.00,3103.3181610,N,11925.0744602,E,1,08,1.02,6.820,M,4.767,M,,*72
$GNGGA,071740.10,3103.3181601,N,11925.0744596,E,1,08,1.02,6.819,M,4.767,M,,*77
$GNGGA,071740.20,3103.3181601,N,11925.0744592,E,1,08,1.02,6.818,M,4.767,M,,*71
$GNGGA,071740.30,3103.3181602,N,11925.0744600,E,1,08,1.02,6.818,M,4.767,M,,*7B
$GNGGA,071740.40,3103.3181603,N,11925.0744604,E,1,08,1.02,6.818,M,4.767,M,,*79
$GNGGA,071740.50,3103.3181608,N,11925.0744602,E,1,08,1.02,6.816,M,4.767,M,,*7B
$GNGGA,071740.60,3103.3181604,N,11925.0744602,E,1,08,1.02,6.815,M,4.767,M,,*77
$GNGGA,071740.70,3103.3181598,N,11925.0744598,E,1,08,1.02,6.816,M,4.767,M,,*73
$GNGGA,071740.80,3103.3181607,N,11925.0744603,E,1,08,1.02,6.814,M,4.767,M,,*7A
$GNGGA,071740.90,3103.3181605,N,11925.0744602,E,1,08,1.02,6.814,M,4.767,M,,*78
$GNGGA,071741.00,3103.3181612,N,11925.0744608,E,1,08,1.02,6.813,M,4.767,M,,*7B
$GNGGA,071741.10,3103.3181614,N,11925.0744599,E,1,08,1.02,6.811,M,4.767,M,,*75
$GNGGA,071741.20,3103.3181625,N,11925.0744607,E,1,08,1.02,6.811,M,4.767,M,,*70
$GNGGA,071741.30,3103.3181622,N,11925.0744603,E,1,08,1.02,6.811,M,4.767,M,,*72
$GNGGA,071741.40,3103.3181617,N,11925.0744602,E,1,08,1.02,6.811,M,4.767,M,,*72
$GNGGA,071741.50,3103.3181611,N,11925.0744597,E,1,08,1.02,6.811,M,4.767,M,,*7A
$GNGGA,071741.60,3103.3181620,N,11925.0744601,E,1,08,1.02,6.810,M,4.767,M,,*76
$GNGGA,071741.70,3103.3181618,N,11925.0744601,E,1,08,1.02,6.811,M,4.767,M,,*7D
$GNGGA,071741.80,3103.3181618,N,11925.0744598,E,1,08,1.02,6.810,M,4.767,M,,*70
$GNGGA,071741.90,3103.3181617,N,11925.0744596,E,1,08,1.02,6.809,M,4.767,M,,*78
$GNGGA,071742.00,3103.3181615,N,11925.0744592,E,1,08,1.02,6.811,M,4.767,M,,*7D
$GNGGA,071742.10,3103.3181620,N,11925.0744589,E,1,08,1.02,6.806,M,4.767,M,,*76
$GNGGA,071742.20,3103.3181615,N,11925.0744585,E,1,08,1.02,6.806,M,4.767,M,,*7F
$GNGGA,071742.30,3103.3181629,N,11925.0744590,E,1,08,1.02,6.805,M,4.767,M,,*76
$GNGGA,071742.40,3103.3181628,N,11925.0744590,E,1,08,1.02,6.804,M,4.767,M,,*71
$GNGGA,071742.50,3103.3181631,N,11925.0744585,E,1,08,1.02,6.803,M,4.767,M,,*7B
$GNGGA,071742.60,3103.3181632,N,11925.0744588,E,1,08,1.02,6.804,M,4.767,M,,*71
$GNGGA,071742.70,3103.3181630,N,11925.0744584,E,1,08,1.02,6.803,M,4.767,M,,*79
$GNGGA,071742.80,3103.3181622,N,11925.0744585,E,1,08,1.02,6.805,M,4.767,M,,*72
$GNGGA,071742.90,3103.3181629,N,11925.0744584,E,1,08,1.02,6.804,M,4.767,M,,*78
$GNGGA,071743.00,3103.3181628,N,11925.0744586,E,1,08,1.02,6.805,M,4.767,M,,*72
$GNGGA,071743.10,3103.3181630,N,11925.0744586,E,1,08,1.02,6.805,M,4.767,M,,*7A
$GNGGA,071743.20,3103.3181623,N,11925.0744586,E,1,08,1.02,6.805,M,4.767,M,,*7B
$GNGGA,071743.30,3103.3181635,N,11925.0744587,E,1,08,1.02,6.805,M,4.767,M,,*7C
$GNGGA,071743.40,3103.3181632,N,11925.0744584,E,1,08,1.02,6.804,M,4.767,M,,*7E
$GNGGA,071743.50,3103.3181641,N,11925.0744588,E,1,08,1.02,6.802,M,4.767,M,,*71
$GNGGA,071743.60,3103.3181640,N,11925.0744590,E,1,08,1.02,6.803,M,4.767,M,,*7B
$GNGGA,071743.70,3103.3181639,N,11925.0744585,E,1,08,1.02,6.802,M,4.767,M,,*71
$GNGGA,071743.80,3103.3181633,N,11925.0744587,E,1,08,1.02,6.802,M,4.767,M,,*76
$GNGGA,071743.90,3103.3181633,N,11925.0744586,E,1,08,1.02,6.802,M,4.767,M,,*76
$GNGGA,071744.00,3103.3181638,N,11925.0744591,E,1,08,1.02,6.802,M,4.767,M,,*75
$GNGGA,071744.10,3103.3181634,N,11925.0744586,E,1,08,1.02,6.802,M,4.767,M,,*7E
$GNGGA,071744.20,3103.3181640,N,11925.0744586,E,1,08,1.02,6.802,M,4.767,M,,*7E
$GNGGA,071744.30,3103.3181641,N,11925.0744583,E,1,08,1.02,6.800,M,4.767,M,,*79
$GNGGA,071744.40,3103.3181635,N,11925.0744583,E,1,08,1.02,6.801,M,4.767,M,,*7C
$GNGGA,071744.50,3103.3181653,N,11925.0744590,E,1,08,1.02,6.797,M,4.767,M,,*7F
$GNGGA,071744.60,3103.3181644,N,11925.0744577,E,1,08,1.02,6.798,M,4.767,M,,*7C
$GNGGA,071744.70,3103.3181651,N,11925.0744584,E,1,08,1.02,6.797,M,4.767,M,,*7A
$GNGGA,071744.80,3103.3181657,N,11925.0744583,E,1,08,1.02,6.797,M,4.767,M,,*74
$GNGGA,071744.90,3103.3181650,N,11925.0744578,E,1,08,1.02,6.798,M,4.767,M,,*79
$GNGGA,071745.00,3103.3181653,N,11925.0744584,E,1,08,1.02,6.798,M,4.767,M,,*71
$GNGGA,071745.10,3103.3181654,N,11925.0744576,E,1,08,1.02,6.798,M,4.767,M,,*7A
$GNGGA,071745.20,3103.3181656,N,11925.0744583,E,1,08,1.02,6.797,M,4.767,M,,*7E
$GNGGA,071745.30,3103.3181657,N,11925.0744583,E,1,08,1.02,6.797,M,4.767,M,,*7E
$GNGGA,071745.40,3103.3181662,N,11925.0744580,E,1,08,1.02,6.795,M,4.767,M,,*7E
$GNGGA,071745.50,3103.3181660,N,11925.0744575,E,1,08,1.02,6.794,M,4.767,M,,*76
$GNGGA,071745.60,3103.3181662,N,11925.0744576,E,1,08,1.02,6.793,M,4.767,M,,*73
$GNGGA,071745.70,3103.3181663,N,11925.0744580,E,1,08,1.02,6.795,M,4.767,M,,*7C
$GNGGA,071745.80,3103.3181659,N,11925.0744574,E,1,08,1.02,6.794,M,4.767,M,,*70
$GNGGA,071745.90,3103.3181662,N,11925.0744574,E,1,08,1.02,6.794,M,4.767,M,,*79
$GNGGA,071746.00,3103.3181664,N,11925.0744577,E,1,08,1.02,6.795,M,4.767,M,,*77
$GNGGA,071746.10,3103.3181660,N,11925.0744576,E,1,08,1.02,6.794,M,4.767,M,,*72
$GNGGA,071746.20,3103.3181663,N,11925.0744579,E,1,08,1.02,6.795,M,4.767,M,,*7C
$GNGGA,071746.30,3103.3181674,N,11925.0744579,E,1,08,1.02,6.792,M,4.767,M,,*7C
$GNGGA,071746.40,3103.3181661,N,11925.0744569,E,1,08,1.02,6.793,M,4.767,M,,*7F
$GNGGA,071746.50,3103.3181663,N,11925.0744570,E,1,08,1.02,6.793,M,4.767,M,,*74
$GNGGA,071746.60,3103.3181672,N,11925.0744575,E,1,08,1.02,6.791,M,4.767,M,,*70
$GNGGA,071746.70,3103.3181666,N,11925.0744576,E,1,08,1.02,6.792,M,4.767,M,,*74
$GNGGA,071746.80,3103.3181664,N,11925.0744580,E,1,08,1.02,6.792,M,4.767,M,,*70
$GNGGA,071746.90,3103.3181667,N,11925.0744580,E,1,08,1.02,6.788,M,4.767,M,,*79
$GNGGA,071747.00,3103.3181666,N,11925.0744583,E,1,08,1.02,6.792,M,4.767,M,,*78
$GNGGA,071747.10,3103.3181665,N,11925.0744581,E,1,08,1.02,6.789,M,4.767,M,,*72
$GNGGA,071747.20,3103.3181668,N,11925.0744580,E,1,08,1.02,6.791,M,4.767,M,,*74
$GNGGA,071747.30,3103.3181672,N,11925.0744579,E,1,08,1.02,6.790,M,4.767,M,,*79
$GNGGA,071747.40,3103.3181665,N,11925.0744573,E,1,08,1.02,6.789,M,4.767,M,,*7A
$GNGGA,071747.50,3103.3181666,N,11925.0744575,E,1,08,1.02,6.790,M,4.767,M,,*76
$GNGGA,071747.60,3103.3181666,N,11925.0744578,E,1,08,1.02,6.790,M,4.767,M,,*78
$GNGGA,071747.70,3103.3181658,N,11925.0744577,E,1,08,1.02,6.790,M,4.767,M,,*7B
$GNGGA,071747.80,3103.3181660,N,11925.0744577,E,1,08,1.02,6.789,M,4.767,M,,*77
$GNGGA,071747.90,3103.3181660,N,11925.0744572,E,1,08,1.02,6.791,M,4.767,M,,*7A
$GNGGA,071748.00,3103.3181658,N,11925.0744579,E,1,08,1.02,6.788,M,4.767,M,,*74
$GNGGA,071748.10,3103.3181653,N,11925.0744567,E,1,08,1.02,6.790,M,4.767,M,,*78
$GNGGA,071748.20,3103.3181649,N,11925.0744570,E,1,08,1.02,6.791,M,4.767,M,,*77
$GNGGA,071748.30,3103.3181645,N,11925.0744573,E,1,08,1.02,6.792,M,4.767,M,,*7A
$GNGGA,071748.40,3103.3181648,N,11925.0744571,E,1,08,1.02,6.790,M,4.767,M,,*70
$GNGGA,071748.50,3103.3181641,N,11925.0744565,E,1,08,1.02,6.791,M,4.767,M,,*7C
$GNGGA,071748.60,3103.3181646,N,11925.0744571,E,1,08,1.02,6.791,M,4.767,M,,*7D
$GNGGA,071748.70,3103.3181631,N,11925.0744561,E,1,08,1.02,6.791,M,4.767,M,,*7D
$GNGGA,071748.80,3103.3181635,N,11925.0744560,E,1,08,1.02,6.791,M,4.767,M,,*77
$GNGGA,071748.90,3103.3181638,N,11925.0744565,E,1,08,1.02,6.791,M,4.767,M,,*7E
$GNGGA,071749.00,3103.3181641,N,11925.0744567,E,1,08,1.02,6.791,M,4.767,M,,*7A
$GNGGA,071749.10,3103.3181637,N,11925.0744560,E,1,08,1.02,6.789,M,4.767,M,,*74
$GNGGA,071749.20,3103.3181634,N,11925.0744560,E,1,08,1.02,6.787,M,4.767,M,,*7A
$GNGGA,071749.30,3103.3181641,N,11925.0744559,E,1,08,1.02,6.788,M,4.767,M,,*7C
$GNGGA,071749.40,3103.3181638,N,11925.0744559,E,1,08,1.02,6.790,M,4.767,M,,*7C
$GNGGA,071749.50,3103.3181642,N,11925.0744553,E,1,08,1.02,6.788,M,4.767,M,,*73
$GNGGA,071749.60,3103.3181643,N,11925.0744563,E,1,08,1.02,6.791,M,4.767,M,,*7A
$GNGGA,071749.70,3103.3181645,N,11925.0744563,E,1,08,1.02,6.791,M,4.767,M,,*7D
$GNGGA,071749.80,3103.3181630,N,11925.0744546,E,1,08,1.02,6.789,M,4.767,M,,*7E
$GNGGA,071749.90,3103.3181637,N,11925.0744555,E,1,08,1.02,6.791,M,4.767,M,,*73
$GNGGA,071750.00,3103.3181641,N,11925.0744552,E,1,08,1.02,6.791,M,4.767,M,,*74
$GNGGA,071750.10,3103.3181632,N,11925.0744554,E,1,08,1.02,6.790,M,4.767,M,,*76
$GNGGA,071750.20,3103.3181634,N,11925.0744554,E,1,08,1.02,6.789,M,4.767,M,,*7B
$GNGGA,071750.30,3103.3181642,N,11925.0744551,E,1,08,1.02,6.788,M,4.767,M,,*7F
$GNGGA,071750.40,3103.3181638,N,11925.0744552,E,1,08,1.02,6.787,M,4.767,M,,*79
$GNGGA,071750.50,3103.3181631,N,11925.0744544,E,1,08,1.02,6.787,M,4.767,M,,*76
$GNGGA,071750.60,3103.3181638,N,11925.0744544,E,1,08,1.02,6.787,M,4.767,M,,*7C
$GNGGA,071750.70,3103.3181632,N,11925.0744539,E,1,08,1.02,6.786,M,4.767,M,,*7C
$GNGGA,071750.80,3103.3181635,N,11925.0744546,E,1,08,1.02,6.788,M,4.767,M,,*72
$GNGGA,071750.90,3103.3181632,N,11925.0744540,E,1,08,1.02,6.788,M,4.767,M,,*72
$GNGGA,071751.00,3103.3181630,N,11925.0744535,E,1,08,1.02,6.787,M,4.767,M,,*75
$GNGGA,071751.10,3103.3181630,N,11925.0744538,E,1,08,1.02,6.786,M,4.767,M,,*78
$GNGGA,071751.20,3103.3181633,N,11925.0744533,E,1,08,1.02,6.785,M,4.767,M,,*70
$GNGGA,071751.30,3103.3181632,N,11925.0744528,E,1,08,1.02,6.785,M,4.767,M,,*7A
$GNGGA,071751.40,3103.3181634,N,11925.0744528,E,1,08,1.02,6.784,M,4.767,M,,*7A
$GNGGA,071751.50,3103.3181633,N,11925.0744527,E,1,08,1.02,6.782,M,4.767,M,,*75
$GNGGA,071751.60,3103.3181637,N,11925.0744536,E,1,08,1.02,6.787,M,4.767,M,,*77
$GNGGA,071751.70,3103.3181624,N,11925.0744536,E,1,08,1.02,6.785,M,4.767,M,,*76
$GNGGA,071751.80,3103.3181625,N,11925.0744529,E,1,08,1.02,6.784,M,4.767,M,,*77
$GNGGA,071751.90,3103.3181634,N,11925.0744535,E,1,08,1.02,6.782,M,4.767,M,,*7D
$GNGGA,071752.00,3103.3181640,N,11925.0744543,E,1,08,1.02,6.784,M,4.767,M,,*73
$GNGGA,071752.10,3103.3181632,N,11925.0744542,E,1,08,1.02,6.785,M,4.767,M,,*77
$GNGGA,071752.20,3103.3181640,N,11925.0744546,E,1,08,1.02,6.785,M,4.767,M,,*75
$GNGGA,071752.30,3103.3181636,N,11925.0744545,E,1,08,1.02,6.786,M,4.767,M,,*75
$GNGGA,071752.40,3103.3181635,N,11925.0744544,E,1,08,1.02,6.785,M,4.767,M,,*73
$GNGGA,071752.50,3103.3181637,N,11925.0744540,E,1,08,1.02,6.789,M,4.767,M,,*78
$GNGGA,071752.60,3103.3181628,N,11925.0744544,E,1,08,1.02,6.786,M,4.767,M,,*7E
$GNGGA,071752.70,3103.3181633,N,11925.0744542,E,1,08,1.02,6.788,M,4.767,M,,*7D
$GNGGA,071752.80,3103.3181629,N,11925.0744540,E,1,08,1.02,6.788,M,4.767,M,,*7B
$GNGGA,071752.90,3103.3181639,N,11925.0744543,E,1,08,1.02,6.785,M,4.767,M,,*75
$GNGGA,071753.00,3103.3181633,N,11925.0744539,E,1,08,1.02,6.784,M,4.767,M,,*7B
$GNGGA,071753.10,3103.3181632,N,11925.0744537,E,1,08,1.02,6.785,M,4.767,M,,*74
$GNGGA,071753.20,3103.3181632,N,11925.0744539,E,1,08,1.02,6.786,M,4.767,M,,*7A
$GNGGA,071753.30,3103.3181625,N,11925.0744534,E,1,08,1.02,6.787,M,4.767,M,,*71
$GNGGA,071753.40,3103.3181626,N,11925.0744536,E,1,08,1.02,6.787,M,4.767,M,,*77
$GNGGA,071753.50,3103.3181615,N,11925.0744526,E,1,08,1.02,6.788,M,4.767,M,,*78
$GNGGA,071753.60,3103.3181624,N,11925.0744536,E,1,08,1.02,6.787,M,4.767,M,,*77
$GNGGA,071753.70,3103.3181619,N,11925.0744536,E,1,08,1.02,6.788,M,4.767,M,,*77
$GNGGA,071753.80,3103.3181624,N,11925.0744536,E,1,08,1.02,6.790,M,4.767,M,,*7F
$GNGGA,071753.90,3103.3181629,N,11925.0744542,E,1,08,1.02,6.789,M,4.767,M,,*78
$GNGGA,071754.00,3103.3181624,N,11925.0744537,E,1,08,1.02,6.789,M,4.767,M,,*79
$GNGGA,071754.10,3103.3181620,N,11925.0744534,E,1,08,1.02,6.791,M,4.767,M,,*76
$GNGGA,071754.20,3103.3181630,N,11925.0744547,E,1,08,1.02,6.790,M,4.767,M,,*71
$GNGGA,071754.30,3103.3181624,N,11925.0744540,E,1,08,1.02,6.790,M,4.767,M,,*72
$GNGGA,071754.40,3103.3181621,N,11925.0744534,E,1,08,1.02,6.789,M,4.767,M,,*7B
$GNGGA,071754.50,3103.3181627,N,11925.0744540,E,1,08,1.02,6.789,M,4.767,M,,*7F
$GNGGA,071754.60,3103.3181620,N,11925.0744534,E,1,08,1.02,6.790,M,4.767,M,,*70
$GNGGA,071754.70,3103.3181624,N,11925.0744535,E,1,08,1.02,6.787,M,4.767,M,,*72
$GNGGA,071754.80,3103.3181616,N,11925.0744533,E,1,08,1.02,6.789,M,4.767,M,,*74
$GNGGA,071754.90,3103.3181625,N,11925.0744540,E,1,08,1.02,6.789,M,4.767,M,,*71
$GNGGA,071755.00,3103.3181618,N,11925.0744536,E,1,08,1.02,6.789,M,4.767,M,,*76
$GNGGA,071755.10,3103.3181620,N,11925.0744532,E,1,08,1.02,6.788,M,4.767,M,,*79
$GNGGA,071755.20,3103.3181618,N,11925.0744532,E,1,08,1.02,6.789,M,4.767,M,,*70
$GNGGA,071755.30,3103.3181625,N,11925.0744533,E,1,08,1.02,6.788,M,4.767,M,,*7F
$GNGGA,071755.40,3103.3181618,N,11925.0744523,E,1,08,1.02,6.788,M,4.767,M,,*77
$GNGGA,071755.50,3103.3181615,N,11925.0744528,E,1,08,1.02,6.788,M,4.767,M,,*70
$GNGGA,071755.60,3103.3181626,N,11925.0744534,E,1,08,1.02,6.787,M,4.767,M,,*71
$GNGGA,071755.70,3103.3181621,N,11925.0744532,E,1,08,1.02,6.787,M,4.767,M,,*71
$GNGGA,071755.80,3103.3181625,N,11925.0744527,E,1,08,1.02,6.783,M,4.767,M,,*7A
$GNGGA,071755.90,3103.3181634,N,11925.0744538,E,1,08,1.02,6.782,M,4.767,M,,*74
$GNGGA,071756.00,3103.3181618,N,11925.0744528,E,1,08,1.02,6.781,M,4.767,M,,*72
$GNGGA,071756.10,3103.3181625,N,11925.0744529,E,1,08,1.02,6.780,M,4.767,M,,*7D
$GNGGA,071756.20,3103.3181618,N,11925.0744523,E,1,08,1.02,6.782,M,4.767,M,,*78
$GNGGA,071756.30,3103.3181626,N,11925.0744519,E,1,08,1.02,6.777,M,4.767,M,,*77
$GNGGA,071756.40,3103.3181622,N,11925.0744520,E,1,08,1.02,6.777,M,4.767,M,,*7E
$GNGGA,071756.50,3103.3181612,N,11925.0744517,E,1,08,1.02,6.778,M,4.767,M,,*77
$GNGGA,071756.60,3103.3181619,N,11925.0744518,E,1,08,1.02,6.777,M,4.767,M,,*7F
$GNGGA,071756.70,3103.3181618,N,11925.0744520,E,1,08,1.02,6.778,M,4.767,M,,*7B
$GNGGA,071756.80,3103.3181611,N,11925.0744513,E,1,08,1.02,6.775,M,4.767,M,,*70
$GNGGA,071756.90,3103.3181614,N,11925.0744519,E,1,08,1.02,6.775,M,4.767,M,,*7E
$GNGGA,071757.00,3103.3181612,N,11925.0744515,E,1,08,1.02,6.775,M,4.767,M,,*7C
$GNGGA,071757.10,3103.3181618,N,11925.0744516,E,1,08,1.02,6.771,M,4.767,M,,*70
$GNGGA,071757.20,3103.3181625,N,11925.0744518,E,1,08,1.02,6.768,M,4.767,M,,*7B
$GNGGA,071757.30,3103.3181631,N,11925.0744527,E,1,08,1.02,6.770,M,4.767,M,,*7A
$GNGGA,071757.40,3103.3181617,N,11925.0744518,E,1,08,1.02,6.769,M,4.767,M,,*7D
$GNGGA,071757.50,3103.3181626,N,11925.0744520,E,1,08,1.02,6.770,M,4.767,M,,*7D
$GNGGA,071757.60,3103.3181625,N,11925.0744520,E,1,08,1.02,6.770,M,4.767,M,,*7D
$GNGGA,071757.70,3103.3181623,N,11925.0744521,E,1,08,1.02,6.767,M,4.767,M,,*7D
$GNGGA,071757.80,3103.3181625,N,11925.0744524,E,1,08,1.02,6.767,M,4.767,M,,*71
$GNGGA,071757.90,3103.3181633,N,11925.0744527,E,1,08,1.02,6.766,M,4.767,M,,*75
$GNGGA,071758.00,3103.3181621,N,11925.0744518,E,1,08,1.02,6.766,M,4.767,M,,*7C
$GNGGA,071758.10,3103.3181623,N,11925.0744510,E,1,08,1.02,6.765,M,4.767,M,,*74
$GNGGA,071758.20,3103.3181633,N,11925.0744518,E,1,08,1.02,6.764,M,4.767,M,,*7F
$GNGGA,071758.30,3103.3181631,N,11925.0744521,E,1,08,1.02,6.764,M,4.767,M,,*76
$GNGGA,071758.40,3103.3181635,N,11925.0744525,E,1,08,1.02,6.764,M,4.767,M,,*71
$GNGGA,071758.50,3103.3181631,N,11925.0744526,E,1,08,1.02,6.766,M,4.767,M,,*75
$GNGGA,071758.60,3103.3181627,N,11925.0744522,E,1,08,1.02,6.765,M,4.767,M,,*76
$GNGGA,071758.70,3103.3181632,N,11925.0744528,E,1,08,1.02,6.765,M,4.767,M,,*79
$GNGGA,071758.80,3103.3181613,N,11925.0744519,E,1,08,1.02,6.767,M,4.767,M,,*75
$GNGGA,071758.90,3103.3181631,N,11925.0744534,E,1,08,1.02,6.765,M,4.767,M,,*79
$GNGGA,071759.00,3103.3181630,N,11925.0744534,E,1,08,1.02,6.766,M,4.767,M,,*73
$GNGGA,071759.10,3103.3181628,N,11925.0744527,E,1,08,1.02,6.766,M,4.767,M,,*79
$GNGGA,071759.20,3103.3181623,N,11925.0744523,E,1,08,1.02,6.766,M,4.767,M,,*75
$GNGGA,071759.30,3103.3181631,N,11925.0744526,E,1,08,1.02,6.767,M,4.767,M,,*73
$GNGGA,071759.40,3103.3181639,N,11925.0744532,E,1,08,1.02,6.766,M,4.767,M,,*78
$GNGGA,071759.50,3103.3181615,N,11925.0744510,E,1,08,1.02,6.767,M,4.767,M,,*76
$GNGGA,071759.60,3103.3181629,N,11925.0744519,E,1,08,1.02,6.762,M,4.767,M,,*76
$GNGGA,071759.70,3103.3181627,N,11925.0744516,E,1,08,1.02,6.762,M,4.767,M,,*76
$GNGGA,071759.80,3103.3181613,N,11925.0744505,E,1,08,1.02,6.762,M,4.767,M,,*7C
$GNGGA,071759.90,3103.3181620,N,11925.0744509,E,1,08,1.02,6.762,M,4.767,M,,*71
$GNGGA,071800.00,3103.3181626,N,11925.0744514,E,1,08,1.02,6.760,M,4.767,M,,*73
$GNGGA,071800.10,3103.3181615,N,11925.0744505,E,1,08,1.02,6.762,M,4.767,M,,*70
$GNGGA,071800.20,3103.3181618,N,11925.0744507,E,1,08,1.02,6.760,M,4.767,M,,*7E
$GNGGA,071800.30,3103.3181620,N,11925.0744508,E,1,08,1.02,6.759,M,4.767,M,,*71
$GNGGA,071800.40,3103.3181614,N,11925.0744511,E,1,08,1.02,6.758,M,4.767,M,,*78
$GNGGA,071800.50,3103.3181612,N,11925.0744511,E,1,08,1.02,6.757,M,4.767,M,,*70
$GNGGA,071800.60,3103.3181611,N,11925.0744511,E,1,08,1.02,6.758,M,4.767,M,,*7F
$GNGGA,071800.70,3103.3181607,N,11925.0744512,E,1,08,1.02,6.757,M,4.767,M,,*75
$GNGGA,071800.80,3103.3181615,N,11925.0744512,E,1,08,1.02,6.757,M,4.767,M,,*79
$GNGGA,071800.90,3103.3181608,N,11925.0744509,E,1,08,1.02,6.757,M,4.767,M,,*7E
$GNGGA,071801.00,3103.3181610,N,11925.0744511,E,1,08,1.02,6.756,M,4.767,M,,*77
$GNGGA,071801.10,3103.3181609,N,11925.0744511,E,1,08,1.02,6.756,M,4.767,M,,*7E
$GNGGA,071801.20,3103.3181608,N,11925.0744509,E,1,08,1.02,6.757,M,4.767,M,,*74
$GNGGA,071801.30,3103.3181611,N,11925.0744511,E,1,08,1.02,6.755,M,4.767,M,,*76
$GNGGA,071801.40,3103.3181605,N,11925.0744505,E,1,08,1.02,6.757,M,4.767,M,,*73
$GNGGA,071801.50,3103.3181608,N,11925.0744508,E,1,08,1.02,6.756,M,4.767,M,,*73
$GNGGA,071801.60,3103.3181604,N,11925.0744506,E,1,08,1.02,6.757,M,4.767,M,,*73
$GNGGA,071801.70,3103.3181607,N,11925.0744510,E,1,08,1.02,6.755,M,4.767,M,,*74
$GNGGA,071801.80,3103.3181600,N,11925.0744503,E,1,08,1.02,6.757,M,4.767,M,,*7C
$GNGGA,071801.90,3103.3181608,N,11925.0744505,E,1,08,1.02,6.756,M,4.767,M,,*72
$GNGGA,071802.00,3103.3181608,N,11925.0744504,E,1,08,1.02,6.754,M,4.767,M,,*7B
$GNGGA,071802.10,3103.3181609,N,11925.0744501,E,1,08,1.02,6.754,M,4.767,M,,*7E
$GNGGA,071802.20,3103.3181608,N,11925.0744502,E,1,08,1.02,6.754,M,4.767,M,,*7F
$GNGGA,071802.30,3103.3181616,N,11925.0744503,E,1,08,1.02,6.752,M,4.767,M,,*76
$GNGGA,071802.40,3103.3181610,N,11925.0744495,E,1,08,1.02,6.752,M,4.767,M,,*79
$GNGGA,071802.50,3103.3181610,N,11925.0744501,E,1,08,1.02,6.753,M,4.767,M,,*75
$GNGGA,071802.60,3103.3181615,N,11925.0744501,E,1,08,1.02,6.752,M,4.767,M,,*72
$GNGGA,071802.70,3103.3181619,N,11925.0744500,E,1,08,1.02,6.752,M,4.767,M,,*7E
$GNGGA,071802.80,3103.3181612,N,11925.0744499,E,1,08,1.02,6.751,M,4.767,M,,*78
$GNGGA,071802.90,3103.3181617,N,11925.0744507,E,1,08,1.02,6.754,M,4.767,M,,*7F
$GNGGA,071803.00,3103.3181615,N,11925.0744497,E,1,08,1.02,6.751,M,4.767,M,,*78
$GNGGA,071803.10,3103.3181620,N,11925.0744511,E,1,08,1.02,6.753,M,4.767,M,,*72
$GNGGA,071803.20,3103.3181618,N,11925.0744502,E,1,08,1.02,6.751,M,4.767,M,,*7A
$GNGGA,071803.30,3103.3181617,N,11925.0744501,E,1,08,1.02,6.751,M,4.767,M,,*77
$GNGGA,071803.40,3103.3181616,N,11925.0744500,E,1,08,1.02,6.750,M,4.767,M,,*71
$GNGGA,071803.50,3103.3181619,N,11925.0744498,E,1,08,1.02,6.750,M,4.767,M,,*7F
$GNGGA,071803.60,3103.3181621,N,11925.0744497,E,1,08,1.02,6.748,M,4.767,M,,*71
$GNGGA,071803.70,3103.3181622,N,11925.0744499,E,1,08,1.02,6.748,M,4.767,M,,*7D
$GNGGA,071803.80,3103.3181627,N,11925.0744499,E,1,08,1.02,6.746,M,4.767,M,,*79
$GNGGA,071803.90,3103.3181628,N,11925.0744494,E,1,08,1.02,6.746,M,4.767,M,,*7A
$GNGGA,071804.00,3103.3181632,N,11925.0744496,E,1,08,1.02,6.744,M,4.767,M,,*7F
$GNGGA,071804.10,3103.3181622,N,11925.0744491,E,1,08,1.02,6.746,M,4.767,M,,*7A
$GNGGA,071804.20,3103.3181635,N,11925.0744491,E,1,08,1.02,6.744,M,4.767,M,,*7D
$GNGGA,071804.30,3103.3181631,N,11925.0744489,E,1,08,1.02,6.745,M,4.767,M,,*70
$GNGGA,071804.40,3103.3181633,N,11925.0744490,E,1,08,1.02,6.746,M,4.767,M,,*7E
$GNGGA,071804.50,3103.3181629,N,11925.0744485,E,1,08,1.02,6.744,M,4.767,M,,*72
$GNGGA,071804.60,3103.3181624,N,11925.0744480,E,1,08,1.02,6.745,M,4.767,M,,*78
$GNGGA,071804.70,3103.3181631,N,11925.0744489,E,1,08,1.02,6.745,M,4.767,M,,*74
$GNGGA,071804.80,3103.3181628,N,11925.0744476,E,1,08,1.02,6.744,M,4.767,M,,*72
$GNGGA,071804.90,3103.3181625,N,11925.0744484,E,1,08,1.02,6.747,M,4.767,M,,*70
$GNGGA,071805.00,3103.3181616,N,11925.0744476,E,1,08,1.02,6.747,M,4.767,M,,*75
$GNGGA,071805.10,3103.3181632,N,11925.0744482,E,1,08,1.02,6.746,M,4.767,M,,*78
$GNGGA,071805.20,3103.3181621,N,11925.0744478,E,1,08,1.02,6.747,M,4.767,M,,*7D
$GNGGA,071805.30,3103.3181618,N,11925.0744475,E,1,08,1.02,6.749,M,4.767,M,,*75
$GNGGA,071805.40,3103.3181624,N,11925.0744479,E,1,08,1.02,6.745,M,4.767,M,,*7D
$GNGGA,071805.50,3103.3181618,N,11925.0744476,E,1,08,1.02,6.746,M,4.767,M,,*7F
$GNGGA,071805.60,3103.3181627,N,11925.0744479,E,1,08,1.02,6.745,M,4.767,M,,*7C
$GNGGA,071805.70,3103.3181627,N,11925.0744476,E,1,08,1.02,6.743,M,4.767,M,,*74
$GNGGA,071805.80,3103.3181628,N,11925.0744475,E,1,08,1.02,6.743,M,4.767,M,,*77
$GNGGA,071805.90,3103.3181626,N,11925.0744477,E,1,08,1.02,6.745,M,4.767,M,,*7C
$GNGGA,071806.00,3103.3181625,N,11925.0744473,E,1,08,1.02,6.743,M,4.767,M,,*77
$GNGGA,071806.10,3103.3181626,N,11925.0744470,E,1,08,1.02,6.743,M,4.767,M,,*76
$GNGGA,071806.20,3103.3181629,N,11925.0744473,E,1,08,1.02,6.745,M,4.767,M,,*7F
$GNGGA,071806.30,3103.3181627,N,11925.0744473,E,1,08,1.02,6.745,M,4.767,M,,*70
$GNGGA,071806.40,3103.3181628,N,11925.0744473,E,1,08,1.02,6.746,M,4.767,M,,*7B
$GNGGA,071806.50,3103.3181638,N,11925.0744472,E,1,08,1.02,6.742,M,4.767,M,,*7E
$GNGGA,071806.60,3103.3181627,N,11925.0744467,E,1,08,1.02,6.743,M,4.767,M,,*76
$GNGGA,071806.70,3103.3181633,N,11925.0744468,E,1,08,1.02,6.743,M,4.767,M,,*7D
$GNGGA,071806.80,3103.3181634,N,11925.0744463,E,1,08,1.02,6.741,M,4.767,M,,*7C
$GNGGA,071806.90,3103.3181640,N,11925.0744463,E,1,08,1.02,6.743,M,4.767,M,,*7C
$GNGGA,071807.00,3103.3181640,N,11925.0744462,E,1,08,1.02,6.740,M,4.767,M,,*76
$GNGGA,071807.10,3103.3181643,N,11925.0744468,E,1,08,1.02,6.741,M,4.767,M,,*7F
$GNGGA,071807.20,3103.3181640,N,11925.0744461,E,1,08,1.02,6.741,M,4.767,M,,*76
$GNGGA,071807.30,3103.3181643,N,11925.0744462,E,1,08,1.02,6.739,M,4.767,M,,*78
$GNGGA,071807.40,3103.3181639,N,11925.0744459,E,1,08,1.02,6.740,M,4.767,M,,*74
$GNGGA,071807.50,3103.3181642,N,11925.0744463,E,1,08,1.02,6.740,M,4.767,M,,*70
$GNGGA,071807.60,3103.3181645,N,11925.0744460,E,1,08,1.02,6.737,M,4.767,M,,*77
$GNGGA,071807.70,3103.3181637,N,11925.0744458,E,1,08,1.02,6.737,M,4.767,M,,*78
$GNGGA,071807.80,3103.3181648,N,11925.0744458,E,1,08,1.02,6.735,M,4.767,M,,*7D
$GNGGA,071807.90,3103.3181649,N,11925.0744462,E,1,08,1.02,6.735,M,4.767,M,,*74
$GNGGA,071808.00,3103.3181646,N,11925.0744461,E,1,08,1.02,6.736,M,4.767,M,,*7D
$GNGGA,071808.10,3103.3181644,N,11925.0744460,E,1,08,1.02,6.735,M,4.767,M,,*7C
$GNGGA,071808.20,3103.3181639,N,11925.0744454,E,1,08,1.02,6.734,M,4.767,M,,*73
$GNGGA,071808.30,3103.3181645,N,11925.0744458,E,1,08,1.02,6.736,M,4.767,M,,*77
$GNGGA,071808.40,3103.3181642,N,11925.0744457,E,1,08,1.02,6.736,M,4.767,M,,*78
$GNGGA,071808.50,3103.3181642,N,11925.0744454,E,1,08,1.02,6.734,M,4.767,M,,*78
$GNGGA,071808.60,3103.3181643,N,11925.0744456,E,1,08,1.02,6.734,M,4.767,M,,*78
$GNGGA,071808.70,3103.3181638,N,11925.0744450,E,1,08,1.02,6.734,M,4.767,M,,*73
$GNGGA,071808.80,3103.3181646,N,11925.0744455,E,1,08,1.02,6.733,M,4.767,M,,*77
$GNGGA,071808.90,3103.3181641,N,11925.0744449,E,1,08,1.02,6.732,M,4.767,M,,*7D
$GNGGA,071809.00,3103.3181645,N,11925.0744448,E,1,08,1.02,6.732,M,4.767,M,,*70
$GNGGA,071809.10,3103.3181645,N,11925.0744449,E,1,08,1.02,6.732,M,4.767,M,,*70
$GNGGA,071809.20,3103.3181645,N,11925.0744449,E,1,08,1.02,6.732,M,4.767,M,,*73
$GNGGA,071809.30,3103.3181644,N,11925.0744444,E,1,08,1.02,6.733,M,4.767,M,,*7F
$GNGGA,071809.40,3103.3181645,N,11925.0744448,E,1,08,1.02,6.733,M,4.767,M,,*75
$GNGGA,071809.50,3103.3181633,N,11925.0744437,E,1,08,1.02,6.734,M,4.767,M,,*7A
$GNGGA,071809.60,3103.3181643,N,11925.0744447,E,1,08,1.02,6.735,M,4.767,M,,*78
$GNGGA,071809.70,3103.3181645,N,11925.0744446,E,1,08,1.02,6.733,M,4.767,M,,*78
$GNGGA,071809.80,3103.3181643,N,11925.0744443,E,1,08,1.02,6.731,M,4.767,M,,*76
$GNGGA,071809.90,3103.3181652,N,11925.0744442,E,1,08,1.02,6.729,M,4.767,M,,*7F
$GNGGA,071810.00,3103.3181646,N,11925.0744436,E,1,08,1.02,6.729,M,4.767,M,,*78
$GNGGA,071810.10,3103.3181640,N,11925.0744430,E,1,08,1.02,6.732,M,4.767,M,,*73
$GNGGA,071810.20,3103.3181647,N,11925.0744436,E,1,08,1.02,6.728,M,4.767,M,,*7A
$GNGGA,071810.30,3103.3181652,N,11925.0744435,E,1,08,1.02,6.728,M,4.767,M,,*7C
$GNGGA,071810.40,3103.3181648,N,11925.0744427,E,1,08,1.02,6.728,M,4.767,M,,*73
$GNGGA,071810.50,3103.3181653,N,11925.0744432,E,1,08,1.02,6.726,M,4.767,M,,*72
$GNGGA,071810.60,3103.3181653,N,11925.0744435,E,1,08,1.02,6.727,M,4.767,M,,*77
$GNGGA,071810.70,3103.3181651,N,11925.0744432,E,1,08,1.02,6.725,M,4.767,M,,*71
$GNGGA,071810.80,3103.3181667,N,11925.0744435,E,1,08,1.02,6.723,M,4.767,M,,*7A
$GNGGA,071810.90,3103.3181664,N,11925.0744426,E,1,08,1.02,6.722,M,4.767,M,,*7B
$GNGGA,071811.00,3103.3181655,N,11925.0744422,E,1,08,1.02,6.723,M,4.767,M,,*74
$GNGGA,071811.10,3103.3181668,N,11925.0744433,E,1,08,1.02,6.722,M,4.767,M,,*7A
$GNGGA,071811.20,3103.3181667,N,11925.0744425,E,1,08,1.02,6.721,M,4.767,M,,*72
$GNGGA,071811.30,3103.3181667,N,11925.0744423,E,1,08,1.02,6.720,M,4.767,M,,*74
$GNGGA,071811.40,3103.3181675,N,11925.0744433,E,1,08,1.02,6.721,M,4.767,M,,*70
$GNGGA,071811.50,3103.3181665,N,11925.0744420,E,1,08,1.02,6.721,M,4.767,M,,*72
$GNGGA,071811.60,3103.3181680,N,11925.0744427,E,1,08,1.02,6.721,M,4.767,M,,*7D
$GNGGA,071811.70,3103.3181684,N,11925.0744427,E,1,08,1.02,6.722,M,4.767,M,,*7B
$GNGGA,071811.80,3103.3181672,N,11925.0744415,E,1,08,1.02,6.722,M,4.767,M,,*7C
$GNGGA,071811.90,3103.3181682,N,11925.0744426,E,1,08,1.02,6.720,M,4.767,M,,*70
$GNGGA,071812.00,3103.3181683,N,11925.0744422,E,1,08,1.02,6.720,M,4.767,M,,*7F
$GNGGA,071812.10,3103.3181674,N,11925.0744418,E,1,08,1.02,6.722,M,4.767,M,,*7D
$GNGGA,071812.20,3103.3181684,N,11925.0744423,E,1,08,1.02,6.720,M,4.767,M,,*7B
$GNGGA,071812.30,3103.3181683,N,11925.0744419,E,1,08,1.02,6.721,M,4.767,M,,*75
$GNGGA,071812.40,3103.3181679,N,11925.0744417,E,1,08,1.02,6.722,M,4.767,M,,*7A
$GNGGA,071812.50,3103.3181685,N,11925.0744418,E,1,08,1.02,6.719,M,4.767,M,,*7F
$GNGGA,071812.60,3103.3181686,N,11925.0744415,E,1,08,1.02,6.720,M,4.767,M,,*78
$GNGGA,071812.70,3103.3181685,N,11925.0744414,E,1,08,1.02,6.720,M,4.767,M,,*7B
$GNGGA,071812.80,3103.3181682,N,11925.0744411,E,1,08,1.02,6.723,M,4.767,M,,*75
$GNGGA,071812.90,3103.3181683,N,11925.0744412,E,1,08,1.02,6.723,M,4.767,M,,*76
$GNGGA,071813.00,3103.3181686,N,11925.0744407,E,1,08,1.02,6.722,M,4.767,M,,*7E
$GNGGA,071813.10,3103.3181681,N,11925.0744409,E,1,08,1.02,6.724,M,4.767,M,,*70
$GNGGA,071813.20,3103.3181680,N,11925.0744405,E,1,08,1.02,6.722,M,4.767,M,,*78
$GNGGA,071813.30,3103.3181676,N,11925.0744410,E,1,08,1.02,6.724,M,4.767,M,,*72
$GNGGA,071813.40,3103.3181668,N,11925.0744404,E,1,08,1.02,6.725,M,4.767,M,,*7E
$GNGGA,071813.50,3103.3181683,N,11925.0744410,E,1,08,1.02,6.723,M,4.767,M,,*79
$GNGGA,071813.60,3103.3181673,N,11925.0744410,E,1,08,1.02,6.725,M,4.767,M,,*73
$GNGGA,071813.70,3103.3181677,N,11925.0744412,E,1,08,1.02,6.723,M,4.767,M,,*72
$GNGGA,071813.80,3103.3181678,N,11925.0744412,E,1,08,1.02,6.725,M,4.767,M,,*74
$GNGGA,071813.90,3103.3181670,N,11925.0744411,E,1,08,1.02,6.727,M,4.767,M,,*7C
$GNGGA,071814.00,3103.3181666,N,11925.0744419,E,1,08,1.02,6.731,M,4.767,M,,*7A
$GNGGA,071814.10,3103.3181669,N,11925.0744412,E,1,08,1.02,6.729,M,4.767,M,,*76
$GNGGA,071814.20,3103.3181671,N,11925.0744413,E,1,08,1.02,6.728,M,4.767,M,,*7C
$GNGGA,071814.30,3103.3181670,N,11925.0744415,E,1,08,1.02,6.729,M,4.767,M,,*7B
$GNGGA,071814.40,3103.3181666,N,11925.0744411,E,1,08,1.02,6.729,M,4.767,M,,*7F
$GNGGA,071814.50,3103.3181664,N,11925.0744412,E,1,08,1.02,6.728,M,4.767,M,,*7E
$GNGGA,071814.60,3103.3181659,N,11925.0744407,E,1,08,1.02,6.732,M,4.767,M,,*7C
$GNGGA,071814.70,3103.3181670,N,11925.0744409,E,1,08,1.02,6.728,M,4.767,M,,*73
$GNGGA,071814.80,3103.3181669,N,11925.0744410,E,1,08,1.02,6.729,M,4.767,M,,*7D
$GNGGA,071814.90,3103.3181664,N,11925.0744404,E,1,08,1.02,6.730,M,4.767,M,,*7C
$GNGGA,071815.00,3103.3181664,N,11925.0744399,E,1,08,1.02,6.729,M,4.767,M,,*7F
$GNGGA,071815.10,3103.3181665,N,11925.0744400,E,1,08,1.02,6.731,M,4.767,M,,*71
$GNGGA,071815.20,3103.3181666,N,11925.0744400,E,1,08,1.02,6.732,M,4.767,M,,*72
$GNGGA,071815.30,3103.3181673,N,11925.0744405,E,1,08,1.02,6.732,M,4.767,M,,*72
$GNGGA,071815.40,3103.3181666,N,11925.0744405,E,1,08,1.02,6.732,M,4.767,M,,*71
$GNGGA,071815.50,3103.3181663,N,11925.0744402,E,1,08,1.02,6.733,M,4.767,M,,*73
$GNGGA,071815.60,3103.3181666,N,11925.0744404,E,1,08,1.02,6.733,M,4.767,M,,*73
$GNGGA,071815.70,3103.3181658,N,11925.0744399,E,1,08,1.02,6.734,M,4.767,M,,*7B
$GNGGA,071815.80,3103.3181673,N,11925.0744409,E,1,08,1.02,6.734,M,4.767,M,,*73
$GNGGA,071815.90,3103.3181663,N,11925.0744402,E,1,08,1.02,6.734,M,4.767,M,,*78
$GNGGA,071816.00,3103.3181661,N,11925.0744405,E,1,08,1.02,6.733,M,4.767,M,,*70
$GNGGA,071816.10,3103.3181659,N,11925.0744409,E,1,08,1.02,6.734,M,4.767,M,,*71
$GNGGA,071816.20,3103.3181661,N,11925.0744408,E,1,08,1.02,6.736,M,4.767,M,,*7A
$GNGGA,071816.30,3103.3181665,N,11925.0744408,E,1,08,1.02,6.732,M,4.767,M,,*7B
$GNGGA,071816.40,3103.3181654,N,11925.0744403,E,1,08,1.02,6.736,M,4.767,M,,*71
$GNGGA,071816.50,3103.3181657,N,11925.0744404,E,1,08,1.02,6.737,M,4.767,M,,*75
$GNGGA,071816.60,3103.3181658,N,11925.0744406,E,1,08,1.02,6.735,M,4.767,M,,*79
$GNGGA,071816.70,3103.3181671,N,11925.0744415,E,1,08,1.02,6.734,M,4.767,M,,*70
$GNGGA,071816.80,3103.3181654,N,11925.0744403,E,1,08,1.02,6.736,M,4.767,M,,*7D
$GNGGA,071816.90,3103.3181660,N,11925.0744400,E,1,08,1.02,6.734,M,4.767,M,,*7A
$GNGGA,071817.00,3103.3181661,N,11925.0744403,E,1,08,1.02,6.734,M,4.767,M,,*70
$GNGGA,071817.10,3103.3181656,N,11925.0744400,E,1,08,1.02,6.733,M,4.767,M,,*71
$GNGGA,071817.20,3103.3181656,N,11925.0744394,E,1,08,1.02,6.734,M,4.767,M,,*7F
$GNGGA,071817.30,3103.3181650,N,11925.0744387,E,1,08,1.02,6.734,M,4.767,M,,*7A
$GNGGA,071817.40,3103.3181652,N,11925.0744387,E,1,08,1.02,6.735,M,4.767,M,,*7E
$GNGGA,071817.50,3103.3181654,N,11925.0744393,E,1,08,1.02,6.734,M,4.767,M,,*7D
$GNGGA,071817.60,3103.3181657,N,11925.0744394,E,1,08,1.02,6.734,M,4.767,M,,*7A
$GNGGA,071817.70,3103.3181654,N,11925.0744388,E,1,08,1.02,6.734,M,4.767,M,,*75
$GNGGA,071817.80,3103.3181653,N,11925.0744387,E,1,08,1.02,6.736,M,4.767,M,,*70
$GNGGA,071817.90,3103.3181664,N,11925.0744394,E,1,08,1.02,6.733,M,4.767,M,,*72
$GNGGA,071818.00,3103.3181653,N,11925.0744384,E,1,08,1.02,6.733,M,4.767,M,,*71
$GNGGA,071818.10,3103.3181649,N,11925.0744385,E,1,08,1.02,6.737,M,4.767,M,,*7E
$GNGGA,071818.20,3103.3181651,N,11925.0744381,E,1,08,1.02,6.732,M,4.767,M,,*75
$GNGGA,071818.30,3103.3181649,N,11925.0744376,E,1,08,1.02,6.734,M,4.767,M,,*73
$GNGGA,071818.40,3103.3181651,N,11925.0744375,E,1,08,1.02,6.734,M,4.767,M,,*7E
$GNGGA,071818.50,3103.3181652,N,11925.0744378,E,1,08,1.02,6.733,M,4.767,M,,*76
$GNGGA,071818.60,3103.3181656,N,11925.0744383,E,1,08,1.02,6.733,M,4.767,M,,*75
$GNGGA,071818.70,3103.3181647,N,11925.0744380,E,1,08,1.02,6.735,M,4.767,M,,*71
$GNGGA,071818.80,3103.3181656,N,11925.0744375,E,1,08,1.02,6.735,M,4.767,M,,*74
$GNGGA,071818.90,3103.3181644,N,11925.0744377,E,1,08,1.02,6.738,M,4.767,M,,*79
$GNGGA,071819.00,3103.3181656,N,11925.0744382,E,1,08,1.02,6.736,M,4.767,M,,*76
$GNGGA,071819.10,3103.3181648,N,11925.0744377,E,1,08,1.02,6.737,M,4.767,M,,*73
$GNGGA,071819.20,3103.3181658,N,11925.0744382,E,1,08,1.02,6.736,M,4.767,M,,*7A
$GNGGA,071819.30,3103.3181645,N,11925.0744373,E,1,08,1.02,6.736,M,4.767,M,,*79
$GNGGA,071819.40,3103.3181655,N,11925.0744370,E,1,08,1.02,6.737,M,4.767,M,,*7D
$GNGGA,071819.50,3103.3181662,N,11925.0744381,E,1,08,1.02,6.737,M,4.767,M,,*76
$GNGGA,071819.60,3103.3181660,N,11925.0744381,E,1,08,1.02,6.738,M,4.767,M,,*78
$GNGGA,071819.70,3103.3181668,N,11925.0744383,E,1,08,1.02,6.735,M,4.767,M,,*7E
$GNGGA,071819.80,3103.3181663,N,11925.0744372,E,1,08,1.02,6.736,M,4.767,M,,*77
$GNGGA,071819.90,3103.3181668,N,11925.0744372,E,1,08,1.02,6.734,M,4.767,M,,*7F
$GNGGA,071820.00,3103.3181657,N,11925.0744366,E,1,08,1.02,6.736,M,4.767,M,,*77
$GNGGA,071820.10,3103.3181679,N,11925.0744376,E,1,08,1.02,6.735,M,4.767,M,,*78
$GNGGA,071820.20,3103.3181669,N,11925.0744370,E,1,08,1.02,6.733,M,4.767,M,,*7A
$GNGGA,071820.30,3103.3181668,N,11925.0744369,E,1,08,1.02,6.733,M,4.767,M,,*72
$GNGGA,071820.40,3103.3181658,N,11925.0744354,E,1,08,1.02,6.732,M,4.767,M,,*79
$GNGGA,071820.50,3103.3181663,N,11925.0744359,E,1,08,1.02,6.732,M,4.767,M,,*7D
$GNGGA,071820.60,3103.3181673,N,11925.0744365,E,1,08,1.02,6.731,M,4.767,M,,*73
$GNGGA,071820.70,3103.3181673,N,11925.0744369,E,1,08,1.02,6.732,M,4.767,M,,*7D
$GNGGA,071820.80,3103.3181671,N,11925.0744363,E,1,08,1.02,6.733,M,4.767,M,,*7B
$GNGGA,071820.90,3103.3181668,N,11925.0744361,E,1,08,1.02,6.734,M,4.767,M,,*77
$GNGGA,071821.00,3103.3181658,N,11925.0744353,E,1,08,1.02,6.736,M,4.767,M,,*7F
$GNGGA,071821.10,3103.3181658,N,11925.0744355,E,1,08,1.02,6.732,M,4.767,M,,*7C
$GNGGA,071821.20,3103.3181657,N,11925.0744358,E,1,08,1.02,6.736,M,4.767,M,,*79
$GNGGA,071821.30,3103.3181659,N,11925.0744359,E,1,08,1.02,6.735,M,4.767,M,,*74
$GNGGA,071821.40,3103.3181652,N,11925.0744351,E,1,08,1.02,6.733,M,4.767,M,,*76
$GNGGA,071821.50,3103.3181660,N,11925.0744352,E,1,08,1.02,6.732,M,4.767,M,,*74
$GNGGA,071821.60,3103.3181660,N,11925.0744360,E,1,08,1.02,6.734,M,4.767,M,,*70
$GNGGA,071821.70,3103.3181658,N,11925.0744353,E,1,08,1.02,6.734,M,4.767,M,,*7A
$GNGGA,071821.80,3103.3181670,N,11925.0744358,E,1,08,1.02,6.731,M,4.767,M,,*71
$GNGGA,071821.90,3103.3181671,N,11925.0744365,E,1,08,1.02,6.730,M,4.767,M,,*7E
$GNGGA,071822.00,3103.3181660,N,11925.0744357,E,1,08,1.02,6.732,M,4.767,M,,*77
$GNGGA,071822.10,3103.3181652,N,11925.0744353,E,1,08,1.02,6.731,M,4.767,M,,*70
$GNGGA,071822.20,3103.3181661,N,11925.0744351,E,1,08,1.02,6.731,M,4.767,M,,*71
$GNGGA,071822.30,3103.3181671,N,11925.0744359,E,1,08,1.02,6.730,M,4.767,M,,*78
$GNGGA,071822.40,3103.3181671,N,11925.0744357,E,1,08,1.02,6.729,M,4.767,M,,*79
$GNGGA,071822.50,3103.3181670,N,11925.0744359,E,1,08,1.02,6.731,M,4.767,M,,*7E
$GNGGA,071822.60,3103.3181665,N,11925.0744344,E,1,08,1.02,6.729,M,4.767,M,,*7C
$GNGGA,071822.70,3103.3181675,N,11925.0744357,E,1,08,1.02,6.728,M,4.767,M,,*7F
$GNGGA,071822.80,3103.3181671,N,11925.0744347,E,1,08,1.02,6.731,M,4.767,M,,*7D
$GNGGA,071822.90,3103.3181681,N,11925.0744354,E,1,08,1.02,6.728,M,4.767,M,,*79
$GNGGA,071823.00,3103.3181672,N,11925.0744343,E,1,08,1.02,6.729,M,4.767,M,,*7A
$GNGGA,071823.10,3103.3181674,N,11925.0744339,E,1,08,1.02,6.727,M,4.767,M,,*7E
$GNGGA,071823.20,3103.3181690,N,11925.0744355,E,1,08,1.02,6.724,M,4.767,M,,*7E
$GNGGA,071823.30,3103.3181678,N,11925.0744342,E,1,08,1.02,6.729,M,4.767,M,,*72
$GNGGA,071823.40,3103.3181690,N,11925.0744349,E,1,08,1.02,6.725,M,4.767,M,,*74
$GNGGA,071823.50,3103.3181693,N,11925.0744351,E,1,08,1.02,6.724,M,4.767,M,,*7E
$GNGGA,071823.60,3103.3181689,N,11925.0744342,E,1,08,1.02,6.726,M,4.767,M,,*76
$GNGGA,071823.70,3103.3181701,N,11925.0744362,E,1,08,1.02,6.724,M,4.767,M,,*76
$GNGGA,071823.80,3103.3181703,N,11925.0744356,E,1,08,1.02,6.723,M,4.767,M,,*7B
$GNGGA,071823.90,3103.3181705,N,11925.0744357,E,1,08,1.02,6.721,M,4.767,M,,*7F
$GNGGA,071824.00,3103.3181698,N,11925.0744350,E,1,08,1.02,6.721,M,4.767,M,,*73
$GNGGA,071824.10,3103.3181702,N,11925.0744360,E,1,08,1.02,6.722,M,4.767,M,,*70
$GNGGA,071824.20,3103.3181696,N,11925.0744351,E,1,08,1.02,6.722,M,4.767,M,,*7D
$GNGGA,071824.30,3103.3181698,N,11925.0744351,E,1,08,1.02,6.720,M,4.767,M,,*70
$GNGGA,071824.40,3103.3181693,N,11925.0744343,E,1,08,1.02,6.722,M,4.767,M,,*7D
$GNGGA,071824.50,3103.3181687,N,11925.0744340,E,1,08,1.02,6.721,M,4.767,M,,*79
$GNGGA,071824.60,3103.3181695,N,11925.0744339,E,1,08,1.02,6.720,M,4.767,M,,*76
$GNGGA,071824.70,3103.3181701,N,11925.0744341,E,1,08,1.02,6.719,M,4.767,M,,*7E
$GNGGA,071824.80,3103.3181704,N,11925.0744341,E,1,08,1.02,6.716,M,4.767,M,,*7B
$GNGGA,071824.90,3103.3181705,N,11925.0744339,E,1,08,1.02,6.719,M,4.767,M,,*7B
$GNGGA,071825.00,3103.3181705,N,11925.0744339,E,1,08,1.02,6.717,M,4.767,M,,*7D
$GNGGA,071825.10,3103.3181701,N,11925.0744335,E,1,08,1.02,6.717,M,4.767,M,,*74
$GNGGA,071825.20,3103.3181703,N,11925.0744329,E,1,08,1.02,6.716,M,4.767,M,,*79
$GNGGA,071825.30,3103.3181701,N,11925.0744325,E,1,08,1.02,6.715,M,4.767,M,,*75
$GNGGA,071825.40,3103.3181698,N,11925.0744322,E,1,08,1.02,6.718,M,4.767,M,,*79
$GNGGA,071825.50,3103.3181711,N,11925.0744326,E,1,08,1.02,6.716,M,4.767,M,,*72
$GNGGA,071825.60,3103.3181693,N,11925.0744312,E,1,08,1.02,6.717,M,4.767,M,,*7C
$GNGGA,071825.70,3103.3181716,N,11925.0744322,E,1,08,1.02,6.715,M,4.767,M,,*70
$GNGGA,071825.80,3103.3181710,N,11925.0744322,E,1,08,1.02,6.714,M,4.767,M,,*78
$GNGGA,071825.90,3103.3181704,N,11925.0744317,E,1,08,1.02,6.716,M,4.767,M,,*78
$GNGGA,071826.00,3103.3181712,N,11925.0744325,E,1,08,1.02,6.714,M,4.767,M,,*76
$GNGGA,071826.10,3103.3181733,N,11925.0744344,E,1,08,1.02,6.709,M,4.767,M,,*7F
$GNGGA,071826.20,3103.3181731,N,11925.0744336,E,1,08,1.02,6.707,M,4.767,M,,*75
$GNGGA,071826.30,3103.3181721,N,11925.0744332,E,1,08,1.02,6.712,M,4.767,M,,*75
$GNGGA,071826.40,3103.3181720,N,11925.0744330,E,1,08,1.02,6.712,M,4.767,M,,*71
$GNGGA,071826.50,3103.3181737,N,11925.0744329,E,1,08,1.02,6.705,M,4.767,M,,*78
$GNGGA,071826.60,3103.3181742,N,11925.0744331,E,1,08,1.02,6.706,M,4.767,M,,*73
$GNGGA,071826.70,3103.3181748,N,11925.0744331,E,1,08,1.02,6.704,M,4.767,M,,*7A
$GNGGA,071826.80,3103.3181746,N,11925.0744332,E,1,08,1.02,6.704,M,4.767,M,,*78
$GNGGA,071826.90,3103.3181742,N,11925.0744314,E,1,08,1.02,6.702,M,4.767,M,,*7F
$GNGGA,071827.00,3103.3181748,N,11925.0744320,E,1,08,1.02,6.701,M,4.767,M,,*79
$GNGGA,071827.10,3103.3181736,N,11925.0744308,E,1,08,1.02,6.703,M,4.767,M,,*79
$GNGGA,071827.20,3103.3181751,N,11925.0744318,E,1,08,1.02,6.701,M,4.767,M,,*78
$GNGGA,071827.30,3103.3181731,N,11925.0744309,E,1,08,1.02,6.706,M,4.767,M,,*78
$GNGGA,071827.40,3103.3181741,N,11925.0744311,E,1,08,1.02,6.702,M,4.767,M,,*75
$GNGGA,071827.50,3103.3181747,N,11925.0744322,E,1,08,1.02,6.701,M,4.767,M,,*71
$GNGGA,071827.60,3103.3181739,N,11925.0744312,E,1,08,1.02,6.700,M,4.767,M,,*79
$GNGGA,071827.70,3103.3181741,N,11925.0744312,E,1,08,1.02,6.699,M,4.767,M,,*76
$GNGGA,071827.80,3103.3181755,N,11925.0744321,E,1,08,1.02,6.696,M,4.767,M,,*73
$GNGGA,071827.90,3103.3181735,N,11925.0744305,E,1,08,1.02,6.698,M,4.767,M,,*7C
$GNGGA,071828.00,3103.3181760,N,11925.0744316,E,1,08,1.02,6.693,M,4.767,M,,*73
$GNGGA,071828.10,3103.3181761,N,11925.0744315,E,1,08,1.02,6.690,M,4.767,M,,*73
$GNGGA,071828.20,3103.3181746,N,11925.0744299,E,1,08,1.02,6.695,M,4.767,M,,*75
$GNGGA,071828.30,3103.3181756,N,11925.0744304,E,1,08,1.02,6.692,M,4.767,M,,*77
$GNGGA,071828.40,3103.3181757,N,11925.0744306,E,1,08,1.02,6.692,M,4.767,M,,*73
$GNGGA,071828.50,3103.3181767,N,11925.0744307,E,1,08,1.02,6.692,M,4.767,M,,*70
$GNGGA,071828.60,3103.3181775,N,11925.0744307,E,1,08,1.02,6.688,M,4.767,M,,*7B
$GNGGA,071828.70,3103.3181765,N,11925.0744304,E,1,08,1.02,6.689,M,4.767,M,,*79
$GNGGA,071828.80,3103.3181771,N,11925.0744305,E,1,08,1.02,6.689,M,4.767,M,,*72
$GNGGA,071828.90,3103.3181768,N,11925.0744306,E,1,08,1.02,6.687,M,4.767,M,,*76
$GNGGA,071829.00,3103.3181773,N,11925.0744308,E,1,08,1.02,6.689,M,4.767,M,,*74
$GNGGA,071829.10,3103.3181767,N,11925.0744297,E,1,08,1.02,6.689,M,4.767,M,,*77
$GNGGA,071829.20,3103.3181769,N,11925.0744299,E,1,08,1.02,6.690,M,4.767,M,,*7C
$GNGGA,071829.30,3103.3181764,N,11925.0744292,E,1,08,1.02,6.689,M,4.767,M,,*73
$GNGGA,071829.40,3103.3181763,N,11925.0744293,E,1,08,1.02,6.691,M,4.767,M,,*7B
$GNGGA,071829.50,3103.3181770,N,11925.0744303,E,1,08,1.02,6.691,M,4.767,M,,*70
$GNGGA,071829.60,3103.3181769,N,11925.0744301,E,1,08,1.02,6.691,M,4.767,M,,*79
$GNGGA,071829.70,3103.3181769,N,11925.0744299,E,1,08,1.02,6.689,M,4.767,M,,*71
$GNGGA,071829.80,3103.3181769,N,11925.0744300,E,1,08,1.02,6.692,M,4.767,M,,*75
$GNGGA,071829.90,3103.3181747,N,11925.0744276,E,1,08,1.02,6.689,M,4.767,M,,*72
$GNGGA,071830.00,3103.3181763,N,11925.0744283,E,1,08,1.02,6.683,M,4.767,M,,*75
$GNGGA,071830.10,3103.3181772,N,11925.0744282,E,1,08,1.02,6.681,M,4.767,M,,*77
$GNGGA,071830.20,3103.3181766,N,11925.0744284,E,1,08,1.02,6.685,M,4.767,M,,*73
$GNGGA,071830.30,3103.3181766,N,11925.0744281,E,1,08,1.02,6.685,M,4.767,M,,*77
$GNGGA,071830.40,3103.3181759,N,11925.0744278,E,1,08,1.02,6.684,M,4.767,M,,*7B
$GNGGA,071830.50,3103.3181756,N,11925.0744273,E,1,08,1.02,6.686,M,4.767,M,,*7C
$GNGGA,071830.60,3103.3181759,N,11925.0744273,E,1,08,1.02,6.687,M,4.767,M,,*71
$GNGGA,071830.70,3103.3181758,N,11925.0744268,E,1,08,1.02,6.684,M,4.767,M,,*78
$GNGGA,071830.80,3103.3181751,N,11925.0744260,E,1,08,1.02,6.685,M,4.767,M,,*77
$GNGGA,071830.90,3103.3181750,N,11925.0744262,E,1,08,1.02,6.685,M,4.767,M,,*75
$GNGGA,071831.00,3103.3181759,N,11925.0744268,E,1,08,1.02,6.685,M,4.767,M,,*7E
$GNGGA,071831.10,3103.3181758,N,11925.0744267,E,1,08,1.02,6.686,M,4.767,M,,*72
$GNGGA,071831.20,3103.3181768,N,11925.0744271,E,1,08,1.02,6.684,M,4.767,M,,*77
$GNGGA,071831.30,3103.3181767,N,11925.0744271,E,1,08,1.02,6.684,M,4.767,M,,*79
$GNGGA,071831.40,3103.3181768,N,11925.0744278,E,1,08,1.02,6.684,M,4.767,M,,*78
$GNGGA,071831.50,3103.3181764,N,11925.0744273,E,1,08,1.02,6.682,M,4.767,M,,*78
$GNGGA,071831.60,3103.3181785,N,11925.0744279,E,1,08,1.02,6.679,M,4.767,M,,*7A
$GNGGA,071831.70,3103.3181786,N,11925.0744282,E,1,08,1.02,6.680,M,4.767,M,,*7A
$GNGGA,071831.80,3103.3181793,N,11925.0744300,E,1,08,1.02,6.677,M,4.767,M,,*72
$GNGGA,071831.90,3103.3181806,N,11925.0744308,E,1,08,1.02,6.677,M,4.767,M,,*78
$GNGGA,071832.00,3103.3181805,N,11925.0744306,E,1,08,1.02,6.676,M,4.767,M,,*7E
$GNGGA,071832.10,3103.3181808,N,11925.0744309,E,1,08,1.02,6.674,M,4.767,M,,*7F
$GNGGA,071832.20,3103.3181813,N,11925.0744310,E,1,08,1.02,6.670,M,4.767,M,,*7A
$GNGGA,071832.30,3103.3181823,N,11925.0744317,E,1,08,1.02,6.670,M,4.767,M,,*7F
$GNGGA,071832.40,3103.3181820,N,11925.0744319,E,1,08,1.02,6.671,M,4.767,M,,*74
$GNGGA,071832.50,3103.3181820,N,11925.0744319,E,1,08,1.02,6.671,M,4.767,M,,*75
$GNGGA,071832.60,3103.3181834,N,11925.0744330,E,1,08,1.02,6.668,M,4.767,M,,*70
$GNGGA,071832.70,3103.3181839,N,11925.0744330,E,1,08,1.02,6.667,M,4.767,M,,*73
$GNGGA,071832.80,3103.3181839,N,11925.0744341,E,1,08,1.02,6.667,M,4.767,M,,*7A
$GNGGA,071832.90,3103.3181850,N,11925.0744341,E,1,08,1.02,6.665,M,4.767,M,,*76
$GNGGA,071833.00,3103.3181841,N,11925.0744336,E,1,08,1.02,6.663,M,4.767,M,,*78
$GNGGA,071833.10,3103.3181848,N,11925.0744340,E,1,08,1.02,6.664,M,4.767,M,,*76
$GNGGA,071833.20,3103.3181858,N,11925.0744344,E,1,08,1.02,6.659,M,4.767,M,,*7E
$GNGGA,071833.30,3103.3181861,N,11925.0744345,E,1,08,1.02,6.658,M,4.767,M,,*75
$GNGGA,071833.40,3103.3181867,N,11925.0744346,E,1,08,1.02,6.657,M,4.767,M,,*78
$GNGGA,071833.50,3103.3181871,N,11925.0744348,E,1,08,1.02,6.656,M,4.767,M,,*71
$GNGGA,071833.60,3103.3181882,N,11925.0744356,E,1,08,1.02,6.655,M,4.767,M,,*72
$GNGGA,071833.70,3103.3181880,N,11925.0744365,E,1,08,1.02,6.654,M,4.767,M,,*70
$GNGGA,071833.80,3103.3181877,N,11925.0744359,E,1,08,1.02,6.654,M,4.767,M,,*78
$GNGGA,071833.90,3103.3181893,N,11925.0744381,E,1,08,1.02,6.655,M,4.767,M,,*77
$GNGGA,071834.00,3103.3181901,N,11925.0744387,E,1,08,1.02,6.653,M,4.767,M,,*73
$GNGGA,071834.10,3103.3181899,N,11925.0744387,E,1,08,1.02,6.655,M,4.767,M,,*74
$GNGGA,071834.20,3103.3181903,N,11925.0744385,E,1,08,1.02,6.654,M,4.767,M,,*76
$GNGGA,071834.30,3103.3181915,N,11925.0744395,E,1,08,1.02,6.649,M,4.767,M,,*7D
$GNGGA,071834.40,3103.3181921,N,11925.0744399,E,1,08,1.02,6.650,M,4.767,M,,*79
$GNGGA,071834.50,3103.3181915,N,11925.0744397,E,1,08,1.02,6.650,M,4.767,M,,*71
$GNGGA,071834.60,3103.3181925,N,11925.0744403,E,1,08,1.02,6.650,M,4.767,M,,*7B
$GNGGA,071834.70,3103.3181930,N,11925.0744405,E,1,08,1.02,6.649,M,4.767,M,,*70
$GNGGA,071834.80,3103.3181927,N,11925.0744398,E,1,08,1.02,6.650,M,4.767,M,,*72
$GNGGA,071834.90,3103.3181925,N,11925.0744390,E,1,08,1.02,6.647,M,4.767,M,,*7F
$GNGGA,071835.00,3103.3181933,N,11925.0744400,E,1,08,1.02,6.646,M,4.767,M,,*7F
$GNGGA,071835.10,3103.3181928,N,11925.0744397,E,1,08,1.02,6.651,M,4.767,M,,*7B
$GNGGA,071835.20,3103.3181919,N,11925.0744384,E,1,08,1.02,6.649,M,4.767,M,,*71
$GNGGA,071835.30,3103.3181915,N,11925.0744375,E,1,08,1.02,6.651,M,4.767,M,,*7B
$GNGGA,071835.40,3103.3181915,N,11925.0744382,E,1,08,1.02,6.652,M,4.767,M,,*77
$GNGGA,071835.50,3103.3181912,N,11925.0744370,E,1,08,1.02,6.653,M,4.767,M,,*7D
$GNGGA,071835.60,3103.3181907,N,11925.0744362,E,1,08,1.02,6.656,M,4.767,M,,*7C
$GNGGA,071835.70,3103.3181902,N,11925.0744367,E,1,08,1.02,6.657,M,4.767,M,,*7C
$GNGGA,071835.80,3103.3181902,N,11925.0744359,E,1,08,1.02,6.658,M,4.767,M,,*71
$GNGGA,071835.90,3103.3181898,N,11925.0744356,E,1,08,1.02,6.657,M,4.767,M,,*72
$GNGGA,071836.00,3103.3181904,N,11925.0744359,E,1,08,1.02,6.657,M,4.767,M,,*73
$GNGGA,071836.10,3103.3181898,N,11925.0744359,E,1,08,1.02,6.659,M,4.767,M,,*78
$GNGGA,071836.20,3103.3181901,N,11925.0744359,E,1,08,1.02,6.657,M,4.767,M,,*74
$GNGGA,071836.30,3103.3181914,N,11925.0744366,E,1,08,1.02,6.654,M,4.767,M,,*7E
$GNGGA,071836.40,3103.3181915,N,11925.0744366,E,1,08,1.02,6.655,M,4.767,M,,*79
$GNGGA,071836.50,3103.3181920,N,11925.0744373,E,1,08,1.02,6.654,M,4.767,M,,*7B
$GNGGA,071836.60,3103.3181931,N,11925.0744376,E,1,08,1.02,6.650,M,4.767,M,,*79
$GNGGA,071836.70,3103.3181931,N,11925.0744386,E,1,08,1.02,6.652,M,4.767,M,,*75
$GNGGA,071836.80,3103.3181934,N,11925.0744386,E,1,08,1.02,6.650,M,4.767,M,,*7D
$GNGGA,071836.90,3103.3181934,N,11925.0744379,E,1,08,1.02,6.651,M,4.767,M,,*7D
$GNGGA,071837.00,3103.3181941,N,11925.0744386,E,1,08,1.02,6.651,M,4.767,M,,*77
$GNGGA,071837.10,3103.3181925,N,11925.0744375,E,1,08,1.02,6.654,M,4.767,M,,*7D
$GNGGA,071837.20,3103.3181920,N,11925.0744362,E,1,08,1.02,6.654,M,4.767,M,,*7D
$GNGGA,071837.30,3103.3181919,N,11925.0744369,E,1,08,1.02,6.658,M,4.767,M,,*71
$GNGGA,071837.40,3103.3181908,N,11925.0744348,E,1,08,1.02,6.656,M,4.767,M,,*7B
$GNGGA,071837.50,3103.3181909,N,11925.0744352,E,1,08,1.02,6.658,M,4.767,M,,*7E
$GNGGA,071837.60,3103.3181904,N,11925.0744350,E,1,08,1.02,6.658,M,4.767,M,,*72
$GNGGA,071837.70,3103.3181902,N,11925.0744347,E,1,08,1.02,6.658,M,4.767,M,,*73
$GNGGA,071837.80,3103.3181911,N,11925.0744353,E,1,08,1.02,6.657,M,4.767,M,,*74
$GNGGA,071837.90,3103.3181910,N,11925.0744358,E,1,08,1.02,6.655,M,4.767,M,,*7D
$GNGGA,071838.00,3103.3181923,N,11925.0744375,E,1,08,1.02,6.656,M,4.767,M,,*77
$GNGGA,071838.10,3103.3181932,N,11925.0744364,E,1,08,1.02,6.653,M,4.767,M,,*73
$GNGGA,071838.20,3103.3181925,N,11925.0744366,E,1,08,1.02,6.652,M,4.767,M,,*75
$GNGGA,071838.30,3103.3181930,N,11925.0744376,E,1,08,1.02,6.653,M,4.767,M,,*70
$GNGGA,071838.40,3103.3181925,N,11925.0744364,E,1,08,1.02,6.654,M,4.767,M,,*77
$GNGGA,071838.50,3103.3181922,N,11925.0744365,E,1,08,1.02,6.654,M,4.767,M,,*70
$GNGGA,071838.60,3103.3181918,N,11925.0744361,E,1,08,1.02,6.657,M,4.767,M,,*7D
$GNGGA,071838.70,3103.3181907,N,11925.0744353,E,1,08,1.02,6.659,M,4.767,M,,*7D
$GNGGA,071838.80,3103.3181908,N,11925.0744352,E,1,08,1.02,6.660,M,4.767,M,,*76
$GNGGA,071838.90,3103.3181915,N,11925.0744353,E,1,08,1.02,6.661,M,4.767,M,,*7B
$GNGGA,071839.00,3103.3181911,N,11925.0744348,E,1,08,1.02,6.660,M,4.767,M,,*7C
$GNGGA,071839.10,3103.3181923,N,11925.0744359,E,1,08,1.02,6.660,M,4.767,M,,*7C
$GNGGA,071839.20,3103.3181926,N,11925.0744356,E,1,08,1.02,6.658,M,4.767,M,,*7E
$GNGGA,071839.30,3103.3181927,N,11925.0744367,E,1,08,1.02,6.660,M,4.767,M,,*77
$GNGGA,071839.40,3103.3181923,N,11925.0744350,E,1,08,1.02,6.658,M,4.767,M,,*7B
$GNGGA,071839.50,3103.3181919,N,11925.0744361,E,1,08,1.02,6.661,M,4.767,M,,*7B
$GNGGA,071839.60,3103.3181911,N,11925.0744347,E,1,08,1.02,6.664,M,4.767,M,,*71
$GNGGA,071839.70,3103.3181904,N,11925.0744343,E,1,08,1.02,6.665,M,4.767,M,,*71
$GNGGA,071839.80,3103.3181903,N,11925.0744336,E,1,08,1.02,6.666,M,4.767,M,,*78
$GNGGA,071839.90,3103.3181908,N,11925.0744343,E,1,08,1.02,6.666,M,4.767,M,,*70
$GNGGA,071840.00,3103.3181905,N,11925.0744340,E,1,08,1.02,6.664,M,4.767,M,,*7B
$GNGGA,071840.10,3103.3181917,N,11925.0744354,E,1,08,1.02,6.664,M,4.767,M,,*7C
$GNGGA,071840.20,3103.3181917,N,11925.0744351,E,1,08,1.02,6.663,M,4.767,M,,*7D
$GNGGA,071840.30,3103.3181917,N,11925.0744351,E,1,08,1.02,6.663,M,4.767,M,,*7C
$GNGGA,071840.40,3103.3181924,N,11925.0744360,E,1,08,1.02,6.662,M,4.767,M,,*78
$GNGGA,071840.50,3103.3181908,N,11925.0744341,E,1,08,1.02,6.664,M,4.767,M,,*72
$GNGGA,071840.60,3103.3181911,N,11925.0744343,E,1,08,1.02,6.664,M,4.767,M,,*7B
$GNGGA,071840.70,3103.3181909,N,11925.0744337,E,1,08,1.02,6.664,M,4.767,M,,*70
$GNGGA,071840.80,3103.3181918,N,11925.0744340,E,1,08,1.02,6.663,M,4.767,M,,*78
$GNGGA,071840.90,3103.3181922,N,11925.0744349,E,1,08,1.02,6.661,M,4.767,M,,*7B
$GNGGA,071841.00,3103.3181924,N,11925.0744340,E,1,08,1.02,6.659,M,4.767,M,,*77
$GNGGA,071841.10,3103.3181930,N,11925.0744356,E,1,08,1.02,6.661,M,4.767,M,,*7F
$GNGGA,071841.20,3103.3181926,N,11925.0744338,E,1,08,1.02,6.660,M,4.767,M,,*72
$GNGGA,071841.30,3103.3181921,N,11925.0744343,E,1,08,1.02,6.664,M,4.767,M,,*7C
$GNGGA,071841.40,3103.3181917,N,11925.0744331,E,1,08,1.02,6.665,M,4.767,M,,*7A
$GNGGA,071841.50,3103.3181916,N,11925.0744332,E,1,08,1.02,6.666,M,4.767,M,,*7A
$GNGGA,071841.60,3103.3181924,N,11925.0744332,E,1,08,1.02,6.664,M,4.767,M,,*7A
$GNGGA,071841.70,3103.3181933,N,11925.0744347,E,1,08,1.02,6.663,M,4.767,M,,*78
$GNGGA,071841.80,3103.3181930,N,11925.0744338,E,1,08,1.02,6.663,M,4.767,M,,*7C
$GNGGA,071841.90,3103.3181931,N,11925.0744346,E,1,08,1.02,6.663,M,4.767,M,,*75
$GNGGA,071842.00,3103.3181927,N,11925.0744339,E,1,08,1.02,6.663,M,4.767,M,,*70
$GNGGA,071842.10,3103.3181922,N,11925.0744329,E,1,08,1.02,6.662,M,4.767,M,,*74
